[
  {
    "id": "v18-8-tc-01",
    "name": "Interlochen Duck Lake Modern Campground",
    "latitude": 44.6278,
    "longitude": -85.7629,
    "state": "MI",
    "owner": "Michigan DNR",
    "layerLabel": "State Campgrounds",
    "category": "state modern",
    "website": "https://www.michigan.gov/recsearch/parks/interlochen",
    "description": "Large modern state park campground between Duck Lake and Green Lake near Interlochen.",
    "cost": "Varies",
    "showers": "Yes"
  },
  {
    "id": "v18-8-tc-02",
    "name": "Interlochen Green Lake Rustic Campground",
    "latitude": 44.6278,
    "longitude": -85.7629,
    "state": "MI",
    "owner": "Michigan DNR",
    "layerLabel": "State Campgrounds",
    "category": "state rustic",
    "website": "https://www.michigan.gov/recsearch/parks/interlochen",
    "description": "Rustic loop at Interlochen State Park with vault toilets and hand-pump water.",
    "cost": "Varies",
    "showers": "No"
  },
  {
    "id": "v18-8-tc-03",
    "name": "Keith J. Charters Traverse City State Park Campground",
    "latitude": 44.7456,
    "longitude": -85.5511,
    "state": "MI",
    "owner": "Michigan DNR",
    "layerLabel": "State Campgrounds",
    "category": "state modern",
    "website": "https://www.michigan.gov/recsearch/parks/traversecity",
    "description": "Major modern state park campground in Traverse City; note DNR renovation closure through the 2026 camping season.",
    "cost": "Varies",
    "showers": "Yes"
  },
  {
    "id": "v18-8-tc-04",
    "name": "Leelanau State Park Rustic Campground",
    "latitude": 45.1833,
    "longitude": -85.5694,
    "state": "MI",
    "owner": "Michigan DNR",
    "layerLabel": "State Campgrounds",
    "category": "state rustic",
    "website": "https://www.michigan.gov/recsearch/parks/leelanau",
    "description": "Rustic state park campground at the tip of the Leelanau Peninsula near the Cathead Bay trails and lighthouse.",
    "cost": "Varies",
    "showers": "No"
  },
  {
    "id": "v18-8-tc-05",
    "name": "Fisherman's Island State Park Rustic Campground",
    "latitude": 45.2667,
    "longitude": -85.3611,
    "state": "MI",
    "owner": "Michigan DNR",
    "layerLabel": "State Campgrounds",
    "category": "state rustic",
    "website": "https://www.michigan.gov/recsearch/parks/fishermans",
    "description": "Rustic Lake Michigan state park campground west of Charlevoix.",
    "cost": "Varies",
    "showers": "No"
  },
  {
    "id": "v18-8-tc-06",
    "name": "Lake Ann State Forest Campground",
    "latitude": 44.712,
    "longitude": -85.862,
    "state": "MI",
    "owner": "Michigan DNR",
    "layerLabel": "State Campgrounds",
    "category": "state rustic",
    "website": "https://www.michigan.gov/recsearch/sfcampgroundsa-m/lakeann",
    "description": "Rustic state forest campground on Lake Ann with access to the Lake Ann Pathway.",
    "cost": "Varies",
    "showers": "No"
  },
  {
    "id": "v18-8-tc-07",
    "name": "Garey Lake State Forest Campground",
    "latitude": 44.777876,
    "longitude": -85.939382,
    "state": "MI",
    "owner": "Michigan DNR",
    "layerLabel": "State Campgrounds",
    "category": "state rustic",
    "website": "https://www.michigan.gov/recsearch/sfcampgroundsa-m/gareylakeforest",
    "description": "Rustic equestrian-friendly state forest campground near Empire with access to the Shore-to-Shore Trail.",
    "cost": "Varies",
    "showers": "No"
  },
  {
    "id": "v18-8-tc-08",
    "name": "Scheck's Place State Forest Campground",
    "latitude": 44.6527778,
    "longitude": -85.4455556,
    "state": "MI",
    "owner": "Michigan DNR",
    "layerLabel": "State Campgrounds",
    "category": "state rustic",
    "website": "https://www.michigan.gov/recsearch/sfcampgroundsn-z/schecksplace",
    "description": "Rustic state forest campground on the Boardman River and Shore-to-Shore Trail corridor east of Traverse City.",
    "cost": "Varies",
    "showers": "No"
  },
  {
    "id": "v18-8-tc-09",
    "name": "Veterans Memorial State Forest Campground",
    "latitude": 44.65811,
    "longitude": -85.94601,
    "state": "MI",
    "owner": "Michigan DNR",
    "layerLabel": "State Campgrounds",
    "category": "state rustic",
    "website": "https://www.michigan.gov/recsearch/sfcampgroundsn-z/veteransmemorial",
    "description": "Rustic state forest campground on the Platte River east of Honor.",
    "cost": "Varies",
    "showers": "No"
  },
  {
    "id": "v18-8-tc-10",
    "name": "Platte River Campground",
    "latitude": 44.712778,
    "longitude": -86.117778,
    "state": "MI",
    "owner": "National Park Service",
    "layerLabel": "Federal Campgrounds",
    "category": "federal modern",
    "website": "https://www.nps.gov/slbe/planyourvisit/platterivercamp.htm",
    "description": "Sleeping Bear Dunes campground with electric hook-ups, hot showers, and modern restrooms.",
    "cost": "$22-$50/night",
    "showers": "Yes"
  },
  {
    "id": "v18-8-tc-11",
    "name": "D.H. Day Campground",
    "latitude": 44.8973,
    "longitude": -86.0206,
    "state": "MI",
    "owner": "National Park Service",
    "layerLabel": "Federal Campgrounds",
    "category": "federal rustic",
    "website": "https://www.nps.gov/slbe/planyourvisit/dhdaycamp.htm",
    "description": "Rustic Sleeping Bear Dunes campground near Glen Arbor with vault toilets and beach access.",
    "cost": "$10-$25/night",
    "showers": "No"
  },
  {
    "id": "v18-8-tc-12",
    "name": "White Pine Backcountry Campground",
    "latitude": 44.73794,
    "longitude": -86.08566,
    "state": "MI",
    "owner": "National Park Service",
    "layerLabel": "Federal Campgrounds",
    "category": "federal rustic",
    "website": "https://www.nps.gov/slbe/planyourvisit/white-pine-backcountry-campground.htm",
    "description": "Primitive hike-in backcountry campground in Sleeping Bear Dunes off the Platte Plains trail system.",
    "cost": "$13/night",
    "showers": "No"
  },
  {
    "id": "v18-8-tc-13",
    "name": "Government Landing",
    "latitude": 44.2968,
    "longitude": -85.9072,
    "state": "MI",
    "owner": "US Forest Service",
    "layerLabel": "Boondocking",
    "category": "boondocking",
    "website": "https://www.fs.usda.gov/r09/huron-manistee/recreation/government-landing",
    "description": "Upper Manistee River designated dispersed camping area with primitive sites and river access.",
    "cost": "Varies",
    "showers": "No"
  },
  {
    "id": "v18-8-tc-14",
    "name": "Upper Manistee Backcountry Campsites - Red Bridge",
    "latitude": 44.283861,
    "longitude": -85.861844,
    "state": "MI",
    "owner": "US Forest Service",
    "layerLabel": "Boondocking",
    "category": "boondocking",
    "website": "https://www.fs.usda.gov/r09/huron-manistee/recreation/upper-manistee-river-backcountry-campsites",
    "description": "Walk-in primitive campsites at Red Bridge on the Upper Manistee backwaters system.",
    "cost": "Varies",
    "showers": "No"
  },
  {
    "id": "v18-8-tc-15",
    "name": "Sawdust Hole River Access Camping",
    "latitude": 44.26931244,
    "longitude": -85.95168475,
    "state": "MI",
    "owner": "US Forest Service",
    "layerLabel": "Boondocking",
    "category": "boondocking",
    "website": "https://www.fs.usda.gov/r09/huron-manistee/recreation/sawdust-hole-river-access",
    "description": "Primitive riverside camping / access area on the Manistee National Recreation River corridor.",
    "cost": "Varies",
    "showers": "No"
  },
  {
    "id": "v18-8-tc-16",
    "name": "Blacksmith Bayou River Access Camping",
    "latitude": 44.25777858,
    "longitude": -86.03194482,
    "state": "MI",
    "owner": "US Forest Service",
    "layerLabel": "Boondocking",
    "category": "boondocking",
    "website": "https://www.fs.usda.gov/r09/huron-manistee/recreation/blacksmith-bayou-river-access",
    "description": "Primitive camping / river access area on the lower Manistee River corridor.",
    "cost": "Varies",
    "showers": "No"
  },
  {
    "id": "v18-8-tc-17",
    "name": "Seaton Creek Campground",
    "latitude": 44.3577778,
    "longitude": -85.8091667,
    "state": "MI",
    "owner": "US Forest Service",
    "layerLabel": "Federal Campgrounds",
    "category": "federal rustic",
    "website": "https://www.fs.usda.gov/r09/huron-manistee/recreation/seaton-creek-campground",
    "description": "Rustic Forest Service campground on Seaton Creek with connector access to the Manistee River Trail.",
    "cost": "$30/night",
    "showers": "No"
  },
  {
    "id": "v18-8-tc-18",
    "name": "Traverse City KOA",
    "latitude": 44.54485,
    "longitude": -85.67634,
    "state": "MI",
    "owner": "Private",
    "layerLabel": "Private Campgrounds",
    "category": "private campground",
    "website": "https://koa.com/campgrounds/traverse-city/",
    "description": "Private KOA south of Traverse City with RV, tent, and cabin options.",
    "cost": "From about $49/night",
    "showers": "Yes"
  },
  {
    "id": "v18-8-tc-19",
    "name": "Indigo Bluffs RV Park & Resort",
    "latitude": 44.80806,
    "longitude": -85.99255,
    "state": "MI",
    "owner": "Private",
    "layerLabel": "Private Campgrounds",
    "category": "private campground",
    "website": "https://www.indigobluffs.com/",
    "description": "Private RV resort near Empire and Sleeping Bear Dunes.",
    "cost": "From about $46/night",
    "showers": "Yes"
  },
  {
    "id": "v18-8-tc-20",
    "name": "Betsie River Campsite",
    "latitude": 44.61354,
    "longitude": -86.20235,
    "state": "MI",
    "owner": "Private",
    "layerLabel": "Private Campgrounds",
    "category": "private campground",
    "website": "https://www.betsieriver.com/",
    "description": "Private riverfront campground in the Frankfort / Elberta area with showers and trail access.",
    "cost": "$40-$85/night",
    "showers": "Yes"
  }
]